transforms: 
  - 
    header: 
      seq: 0
      stamp: 
        secs: 1622643112
        nsecs: 393543100
      frame_id: "world"
    child_frame_id: "base"
    transform: 
      translation: 
        x: 0.0
        y: 0.0
        z: 0.9
      rotation: 
        x: 0.0
        y: 0.0
        z: 0.0
        w: 1.0
---
transforms: 
  - 
    header: 
      seq: 0
      stamp: 
        secs: 1622643112
        nsecs: 388002395
      frame_id: "torso"
    child_frame_id: "head"
    transform: 
      translation: 
        x: 0.06
        y: 0.0
        z: 0.686
      rotation: 
        x: 0.0
        y: 0.0
        z: 0.0
        w: 1.0
  - 
    header: 
      seq: 0
      stamp: 
        secs: 1622643112
        nsecs: 388002395
      frame_id: "left_gripper_base"
    child_frame_id: "l_gripper_l_finger"
    transform: 
      translation: 
        x: 0.0
        y: -0.0014999999999999996
        z: 0.02
      rotation: 
        x: 0.0
        y: 0.0
        z: 0.0
        w: 1.0
  - 
    header: 
      seq: 0
      stamp: 
        secs: 1622643112
        nsecs: 388002395
      frame_id: "left_gripper_base"
    child_frame_id: "l_gripper_r_finger"
    transform: 
      translation: 
        x: 0.0
        y: 0.0014999999999999996
        z: 0.02
      rotation: 
        x: 0.0
        y: 0.0
        z: 0.0
        w: 1.0
  - 
    header: 
      seq: 0
      stamp: 
        secs: 1622643112
        nsecs: 388002395
      frame_id: "left_lower_shoulder"
    child_frame_id: "left_upper_elbow"
    transform: 
      translation: 
        x: 0.102
        y: 0.0
        z: 0.0
      rotation: 
        x: 0.5
        y: 0.49999999999755174
        z: 0.5
        w: 0.5000000000024483
  - 
    header: 
      seq: 0
      stamp: 
        secs: 1622643112
        nsecs: 388002395
      frame_id: "left_upper_elbow"
    child_frame_id: "left_lower_elbow"
    transform: 
      translation: 
        x: 0.069
        y: 0.0
        z: 0.26242
      rotation: 
        x: -0.5
        y: -0.5
        z: -0.49999999999755174
        w: 0.5000000000024483
  - 
    header: 
      seq: 0
      stamp: 
        secs: 1622643112
        nsecs: 388002395
      frame_id: "left_arm_mount"
    child_frame_id: "left_upper_shoulder"
    transform: 
      translation: 
        x: 0.055695
        y: 0.0
        z: 0.011038
      rotation: 
        x: 0.0
        y: 0.0
        z: 0.0
        w: 1.0
  - 
    header: 
      seq: 0
      stamp: 
        secs: 1622643112
        nsecs: 388002395
      frame_id: "left_upper_shoulder"
    child_frame_id: "left_lower_shoulder"
    transform: 
      translation: 
        x: 0.069
        y: 0.0
        z: 0.27035
      rotation: 
        x: -0.7071067811848163
        y: 0.0
        z: 0.0
        w: 0.7071067811882787
  - 
    header: 
      seq: 0
      stamp: 
        secs: 1622643112
        nsecs: 388002395
      frame_id: "left_lower_elbow"
    child_frame_id: "left_upper_forearm"
    transform: 
      translation: 
        x: 0.10359
        y: 0.0
        z: 0.0
      rotation: 
        x: 0.5
        y: 0.49999999999755174
        z: 0.5
        w: 0.5000000000024483
  - 
    header: 
      seq: 0
      stamp: 
        secs: 1622643112
        nsecs: 388002395
      frame_id: "left_upper_forearm"
    child_frame_id: "left_lower_forearm"
    transform: 
      translation: 
        x: 0.01
        y: 0.0
        z: 0.2707
      rotation: 
        x: -0.5
        y: -0.5
        z: -0.49999999999755174
        w: 0.5000000000024483
  - 
    header: 
      seq: 0
      stamp: 
        secs: 1622643112
        nsecs: 388002395
      frame_id: "left_lower_forearm"
    child_frame_id: "left_wrist"
    transform: 
      translation: 
        x: 0.115975
        y: 0.0
        z: 0.0
      rotation: 
        x: 0.5
        y: 0.49999999999755174
        z: 0.5
        w: 0.5000000000024483
  - 
    header: 
      seq: 0
      stamp: 
        secs: 1622643112
        nsecs: 388002395
      frame_id: "right_gripper_base"
    child_frame_id: "r_gripper_l_finger"
    transform: 
      translation: 
        x: 0.0
        y: -0.0014999999999999996
        z: 0.02
      rotation: 
        x: 0.0
        y: 0.0
        z: 0.0
        w: 1.0
  - 
    header: 
      seq: 0
      stamp: 
        secs: 1622643112
        nsecs: 388002395
      frame_id: "right_gripper_base"
    child_frame_id: "r_gripper_r_finger"
    transform: 
      translation: 
        x: 0.0
        y: 0.0014999999999999996
        z: 0.02
      rotation: 
        x: 0.0
        y: 0.0
        z: 0.0
        w: 1.0
  - 
    header: 
      seq: 0
      stamp: 
        secs: 1622643112
        nsecs: 388002395
      frame_id: "right_lower_shoulder"
    child_frame_id: "right_upper_elbow"
    transform: 
      translation: 
        x: 0.102
        y: 0.0
        z: 0.0
      rotation: 
        x: 0.5
        y: 0.49999999999755174
        z: 0.5
        w: 0.5000000000024483
  - 
    header: 
      seq: 0
      stamp: 
        secs: 1622643112
        nsecs: 388002395
      frame_id: "right_upper_elbow"
    child_frame_id: "right_lower_elbow"
    transform: 
      translation: 
        x: 0.069
        y: 0.0
        z: 0.26242
      rotation: 
        x: -0.5
        y: -0.5
        z: -0.49999999999755174
        w: 0.5000000000024483
  - 
    header: 
      seq: 0
      stamp: 
        secs: 1622643112
        nsecs: 388002395
      frame_id: "right_arm_mount"
    child_frame_id: "right_upper_shoulder"
    transform: 
      translation: 
        x: 0.055695
        y: 0.0
        z: 0.011038
      rotation: 
        x: 0.0
        y: 0.0
        z: 0.0
        w: 1.0
  - 
    header: 
      seq: 0
      stamp: 
        secs: 1622643112
        nsecs: 388002395
      frame_id: "right_upper_shoulder"
    child_frame_id: "right_lower_shoulder"
    transform: 
      translation: 
        x: 0.069
        y: 0.0
        z: 0.27035
      rotation: 
        x: -0.7071067811848163
        y: 0.0
        z: 0.0
        w: 0.7071067811882787
  - 
    header: 
      seq: 0
      stamp: 
        secs: 1622643112
        nsecs: 388002395
      frame_id: "right_lower_elbow"
    child_frame_id: "right_upper_forearm"
    transform: 
      translation: 
        x: 0.10359
        y: 0.0
        z: 0.0
      rotation: 
        x: 0.5
        y: 0.49999999999755174
        z: 0.5
        w: 0.5000000000024483
  - 
    header: 
      seq: 0
      stamp: 
        secs: 1622643112
        nsecs: 388002395
      frame_id: "right_upper_forearm"
    child_frame_id: "right_lower_forearm"
    transform: 
      translation: 
        x: 0.01
        y: 0.0
        z: 0.2707
      rotation: 
        x: -0.5
        y: -0.5
        z: -0.49999999999755174
        w: 0.5000000000024483
  - 
    header: 
      seq: 0
      stamp: 
        secs: 1622643112
        nsecs: 388002395
      frame_id: "right_lower_forearm"
    child_frame_id: "right_wrist"
    transform: 
      translation: 
        x: 0.115975
        y: 0.0
        z: 0.0
      rotation: 
        x: 0.5
        y: 0.49999999999755174
        z: 0.5
        w: 0.5000000000024483
---
transforms: 
  - 
    header: 
      seq: 0
      stamp: 
        secs: 1622643112
        nsecs: 403661100
      frame_id: "world"
    child_frame_id: "base"
    transform: 
      translation: 
        x: 0.0
        y: 0.0
        z: 0.9
      rotation: 
        x: 0.0
        y: 0.0
        z: 0.0
        w: 1.0
---
transforms: 
  - 
    header: 
      seq: 0
      stamp: 
        secs: 1622643112
        nsecs: 397202730
      frame_id: "world"
    child_frame_id: "pelvis"
    transform: 
      translation: 
        x: 1.3254069089889526
        y: 0.05622272193431854
        z: 1.0101255178451538
      rotation: 
        x: -0.20365309715270996
        y: 0.0006174445152282715
        z: -0.9790414571762085
        w: -0.00168609619140625
---
transforms: 
  - 
    header: 
      seq: 0
      stamp: 
        secs: 1622643112
        nsecs: 397400379
      frame_id: "world"
    child_frame_id: "spine"
    transform: 
      translation: 
        x: 1.3506685495376587
        y: 0.053373560309410095
        z: 1.2390857934951782
      rotation: 
        x: -0.039580389857292175
        y: 0.013039931654930115
        z: -0.999042272567749
        w: -0.013350650668144226
---
transforms: 
  - 
    header: 
      seq: 0
      stamp: 
        secs: 1622643112
        nsecs: 397515773
      frame_id: "world"
    child_frame_id: "neck"
    transform: 
      translation: 
        x: 1.2823799848556519
        y: 0.04634784162044525
        z: 1.5956344604492188
      rotation: 
        x: 0.18047191202640533
        y: 0.03542768955230713
        z: -0.9819251298904419
        w: -0.044701576232910156
---
transforms: 
  - 
    header: 
      seq: 0
      stamp: 
        secs: 1622643112
        nsecs: 397606134
      frame_id: "world"
    child_frame_id: "h_head"
    transform: 
      translation: 
        x: 1.245880365371704
        y: 0.04411493241786957
        z: 1.7001370191574097
      rotation: 
        x: -0.054068297147750854
        y: 0.011845454573631287
        z: -0.9952152371406555
        w: -0.08051809668540955
---
transforms: 
  - 
    header: 
      seq: 0
      stamp: 
        secs: 1622643112
        nsecs: 397690534
      frame_id: "world"
    child_frame_id: "upperarm_l"
    transform: 
      translation: 
        x: 1.2871876955032349
        y: -0.15016549825668335
        z: 1.4802156686782837
      rotation: 
        x: 0.1624908745288849
        y: 0.981818675994873
        z: -0.07331058382987976
        w: 0.06522822380065918
---
transforms: 
  - 
    header: 
      seq: 0
      stamp: 
        secs: 1622643112
        nsecs: 397774696
      frame_id: "world"
    child_frame_id: "lowerarm_l"
    transform: 
      translation: 
        x: 1.313727617263794
        y: -0.19270944595336914
        z: 1.211884617805481
      rotation: 
        x: -0.009122729301452637
        y: 0.9973961114883423
        z: -0.0518035888671875
        w: -0.049344539642333984
---
transforms: 
  - 
    header: 
      seq: 0
      stamp: 
        secs: 1622643112
        nsecs: 397859334
      frame_id: "world"
    child_frame_id: "hand_l"
    transform: 
      translation: 
        x: 1.2868338823318481
        y: -0.22137227654457092
        z: 0.9374440312385559
      rotation: 
        x: 0.18307921290397644
        y: 0.9725557565689087
        z: -0.08568122982978821
        w: -0.11522406339645386
---
transforms: 
  - 
    header: 
      seq: 0
      stamp: 
        secs: 1622643112
        nsecs: 397937297
      frame_id: "world"
    child_frame_id: "upperarm_r"
    transform: 
      translation: 
        x: 1.2977107763290405
        y: 0.24641212821006775
        z: 1.4819929599761963
      rotation: 
        x: 0.05833993852138519
        y: -0.9873027801513672
        z: -0.07256798446178436
        w: -0.12870171666145325
---
transforms: 
  - 
    header: 
      seq: 0
      stamp: 
        secs: 1622643112
        nsecs: 398085355
      frame_id: "world"
    child_frame_id: "lowerarm_r"
    transform: 
      translation: 
        x: 1.3619270324707031
        y: 0.28723710775375366
        z: 1.2191604375839233
      rotation: 
        x: -0.1365642547607422
        y: -0.987412691116333
        z: -0.07305598258972168
        w: 0.032088279724121094
---
transforms: 
  - 
    header: 
      seq: 0
      stamp: 
        secs: 1622643112
        nsecs: 398201704
      frame_id: "world"
    child_frame_id: "hand_r"
    transform: 
      translation: 
        x: 1.3499083518981934
        y: 0.32940730452537537
        z: 0.9454087615013123
      rotation: 
        x: 0.08661431074142456
        y: -0.987969160079956
        z: -0.10802794992923737
        w: 0.06888379156589508
---
transforms: 
  - 
    header: 
      seq: 0
      stamp: 
        secs: 1622643112
        nsecs: 398297309
      frame_id: "world"
    child_frame_id: "A"
    transform: 
      translation: 
        x: 0.7447744011878967
        y: -0.30338311195373535
        z: 0.8750112056732178
      rotation: 
        x: 0.707248330116272
        y: -0.7069652080535889
        z: 3.0914804938220186e-08
        w: 3.0902430836476924e-08
---
transforms: 
  - 
    header: 
      seq: 0
      stamp: 
        secs: 1622643112
        nsecs: 398389577
      frame_id: "world"
    child_frame_id: "E"
    transform: 
      translation: 
        x: 0.7430031895637512
        y: -0.33499810099601746
        z: 0.8250046372413635
      rotation: 
        x: 6.879950888105668e-06
        y: -1.0
        z: 3.007322038964255e-13
        w: 4.371138828673793e-08
---
transforms: 
  - 
    header: 
      seq: 0
      stamp: 
        secs: 1622643112
        nsecs: 398483276
      frame_id: "world"
    child_frame_id: "L"
    transform: 
      translation: 
        x: 0.7380000352859497
        y: 0.1550000160932541
        z: 0.824999988079071
      rotation: 
        x: 0.7071069478988647
        y: -0.7071066498756409
        z: 3.090862676913275e-08
        w: 3.090861255827804e-08
---
transforms: 
  - 
    header: 
      seq: 0
      stamp: 
        secs: 1622643112
        nsecs: 398599863
      frame_id: "world"
    child_frame_id: "C"
    transform: 
      translation: 
        x: 0.7268778681755066
        y: 0.23101045191287994
        z: 0.8748819828033447
      rotation: 
        x: -2.1735666450695135e-05
        y: -1.0
        z: -9.500961215686e-13
        w: 4.371138828673793e-08
---
transforms: 
  - 
    header: 
      seq: 0
      stamp: 
        secs: 1622643112
        nsecs: 398678541
      frame_id: "world"
    child_frame_id: "B"
    transform: 
      translation: 
        x: 0.7349934577941895
        y: 0.22599750757217407
        z: 0.8250056505203247
      rotation: 
        x: 0.7071149945259094
        y: -0.7070985436439514
        z: 3.0908978487786953e-08
        w: 3.090825728691016e-08
---
transforms: 
  - 
    header: 
      seq: 0
      stamp: 
        secs: 1622643112
        nsecs: 398751497
      frame_id: "world"
    child_frame_id: "H"
    transform: 
      translation: 
        x: 0.8051490187644958
        y: 0.3763401210308075
        z: 0.8749779462814331
      rotation: 
        x: 0.7070774435997009
        y: -0.7071361541748047
        z: 3.090733713406735e-08
        w: 3.090990219334344e-08
---
transforms: 
  - 
    header: 
      seq: 0
      stamp: 
        secs: 1622643112
        nsecs: 398823738
      frame_id: "world"
    child_frame_id: "I"
    transform: 
      translation: 
        x: 0.7820116281509399
        y: 0.34497860074043274
        z: 0.8249954581260681
      rotation: 
        x: -1.705256636341801e-06
        y: -1.0
        z: -7.453913652760366e-14
        w: 4.371138828673793e-08
---
transforms: 
  - 
    header: 
      seq: 0
      stamp: 
        secs: 1622643112
        nsecs: 398896217
      frame_id: "world"
    child_frame_id: "G"
    transform: 
      translation: 
        x: 0.8110139966011047
        y: 0.39799538254737854
        z: 0.8249956369400024
      rotation: 
        x: -1.555467679281719e-05
        y: -1.0
        z: -6.799165180523814e-13
        w: 4.371138828673793e-08
---
transforms: 
  - 
    header: 
      seq: 0
      stamp: 
        secs: 1622643112
        nsecs: 398968219
      frame_id: "world"
    child_frame_id: "D"
    transform: 
      translation: 
        x: 0.6470000147819519
        y: -0.12600000202655792
        z: 0.824999988079071
      rotation: 
        x: 0.7071067690849304
        y: -0.7071067690849304
        z: 3.0908619663705394e-08
        w: 3.0908619663705394e-08
---
transforms: 
  - 
    header: 
      seq: 0
      stamp: 
        secs: 1622643112
        nsecs: 399060487
      frame_id: "world"
    child_frame_id: "F"
    transform: 
      translation: 
        x: 0.5889999866485596
        y: 0.3190000057220459
        z: 0.824999988079071
      rotation: 
        x: 0.7071068286895752
        y: -0.7071067094802856
        z: 3.0908619663705394e-08
        w: 3.0908616110991716e-08
---
transforms: 
  - 
    header: 
      seq: 0
      stamp: 
        secs: 1622643112
        nsecs: 399148464
      frame_id: "world"
    child_frame_id: "M"
    transform: 
      translation: 
        x: 0.7709854245185852
        y: -0.27398839592933655
        z: 0.8250053524971008
      rotation: 
        x: 2.707964085857384e-05
        y: -1.0
        z: 1.1836886722529916e-12
        w: 4.371138828673793e-08
---
transforms: 
  - 
    header: 
      seq: 0
      stamp: 
        secs: 1622643112
        nsecs: 413772500
      frame_id: "world"
    child_frame_id: "base"
    transform: 
      translation: 
        x: 0.0
        y: 0.0
        z: 0.9
      rotation: 
        x: 0.0
        y: 0.0
        z: 0.0
        w: 1.0
---
transforms: 
  - 
    header: 
      seq: 0
      stamp: 
        secs: 1622643112
        nsecs: 399230241
      frame_id: "world"
    child_frame_id: "Redbox"
    transform: 
      translation: 
        x: 0.7429999709129333
        y: -0.597000002861023
        z: 0.8009999990463257
      rotation: 
        x: 0.0
        y: -1.0
        z: 0.0
        w: 4.371138828673793e-08
---
transforms: 
  - 
    header: 
      seq: 0
      stamp: 
        secs: 1622643112
        nsecs: 399311065
      frame_id: "world"
    child_frame_id: "MiddlePlacement"
    transform: 
      translation: 
        x: 0.9369999766349792
        y: -0.0
        z: 0.8399999737739563
      rotation: 
        x: 0.7071067690849304
        y: -0.7071067690849304
        z: 3.0908619663705394e-08
        w: 3.0908619663705394e-08
---
transforms: 
  - 
    header: 
      seq: 0
      stamp: 
        secs: 1622643112
        nsecs: 399399518
      frame_id: "world"
    child_frame_id: "MiddlePlacementN"
    transform: 
      translation: 
        x: 0.7400000095367432
        y: -0.0
        z: 0.824999988079071
      rotation: 
        x: 0.0
        y: -1.0
        z: 0.0
        w: 4.371138828673793e-08
---
transforms: 
  - 
    header: 
      seq: 0
      stamp: 
        secs: 1622643112
        nsecs: 399498462
      frame_id: "world"
    child_frame_id: "Bluebox"
    transform: 
      translation: 
        x: 0.6679999828338623
        y: 0.6079999804496765
        z: 0.8009999990463257
      rotation: 
        x: 0.0
        y: -1.0
        z: 0.0
        w: 4.371138828673793e-08
---
transforms: 
  - 
    header: 
      seq: 0
      stamp: 
        secs: 1622643112
        nsecs: 423888200
      frame_id: "world"
    child_frame_id: "base"
    transform: 
      translation: 
        x: 0.0
        y: 0.0
        z: 0.9
      rotation: 
        x: 0.0
        y: 0.0
        z: 0.0
        w: 1.0
---
transforms: 
  - 
    header: 
      seq: 0
      stamp: 
        secs: 1622643112
        nsecs: 434040800
      frame_id: "world"
    child_frame_id: "base"
    transform: 
      translation: 
        x: 0.0
        y: 0.0
        z: 0.9
      rotation: 
        x: 0.0
        y: 0.0
        z: 0.0
        w: 1.0
---
transforms: 
  - 
    header: 
      seq: 0
      stamp: 
        secs: 1622643112
        nsecs: 444216300
      frame_id: "world"
    child_frame_id: "base"
    transform: 
      translation: 
        x: 0.0
        y: 0.0
        z: 0.9
      rotation: 
        x: 0.0
        y: 0.0
        z: 0.0
        w: 1.0
---
transforms: 
  - 
    header: 
      seq: 0
      stamp: 
        secs: 1622643112
        nsecs: 454367900
      frame_id: "world"
    child_frame_id: "base"
    transform: 
      translation: 
        x: 0.0
        y: 0.0
        z: 0.9
      rotation: 
        x: 0.0
        y: 0.0
        z: 0.0
        w: 1.0
---
transforms: 
  - 
    header: 
      seq: 0
      stamp: 
        secs: 1622643112
        nsecs: 446964740
      frame_id: "world"
    child_frame_id: "pelvis"
    transform: 
      translation: 
        x: 1.3239496946334839
        y: 0.0641857236623764
        z: 1.0107334852218628
      rotation: 
        x: -0.20478710532188416
        y: 0.0006559938192367554
        z: -0.9787998795509338
        w: 0.0035636574029922485
---
transforms: 
  - 
    header: 
      seq: 0
      stamp: 
        secs: 1622643112
        nsecs: 447099685
      frame_id: "world"
    child_frame_id: "spine"
    transform: 
      translation: 
        x: 1.3498296737670898
        y: 0.061698317527770996
        z: 1.2396551370620728
      rotation: 
        x: -0.04076842963695526
        y: 0.011685818433761597
        z: -0.999052882194519
        w: -0.009745091199874878
---
transforms: 
  - 
    header: 
      seq: 0
      stamp: 
        secs: 1622643112
        nsecs: 447178602
      frame_id: "world"
    child_frame_id: "neck"
    transform: 
      translation: 
        x: 1.2824170589447021
        y: 0.0550263375043869
        z: 1.5963772535324097
      rotation: 
        x: 0.17928065359592438
        y: 0.03351709246635437
        z: -0.9823404550552368
        w: -0.04174458980560303
---
transforms: 
  - 
    header: 
      seq: 0
      stamp: 
        secs: 1622643112
        nsecs: 447252750
      frame_id: "world"
    child_frame_id: "h_head"
    transform: 
      translation: 
        x: 1.2461313009262085
        y: 0.05307064950466156
        z: 1.7007890939712524
      rotation: 
        x: -0.05246083438396454
        y: 0.011615961790084839
        z: -0.9954975247383118
        w: -0.07808910310268402
---
transforms: 
  - 
    header: 
      seq: 0
      stamp: 
        secs: 1622643112
        nsecs: 447324752
      frame_id: "world"
    child_frame_id: "upperarm_l"
    transform: 
      translation: 
        x: 1.2883415222167969
        y: -0.14172625541687012
        z: 1.481408953666687
      rotation: 
        x: 0.15745563805103302
        y: 0.9826751947402954
        z: -0.0737588107585907
        w: 0.06416620314121246
---
transforms: 
  - 
    header: 
      seq: 0
      stamp: 
        secs: 1622643112
        nsecs: 447397708
      frame_id: "world"
    child_frame_id: "lowerarm_l"
    transform: 
      translation: 
        x: 1.314480185508728
        y: -0.18429648876190186
        z: 1.213027834892273
      rotation: 
        x: -0.014055103063583374
        y: 0.9972009658813477
        z: -0.052639275789260864
        w: -0.05120941996574402
---
transforms: 
  - 
    header: 
      seq: 0
      stamp: 
        secs: 1622643112
        nsecs: 447470664
      frame_id: "world"
    child_frame_id: "hand_l"
    transform: 
      translation: 
        x: 1.286704659461975
        y: -0.21355462074279785
        z: 0.9387366771697998
      rotation: 
        x: 0.17993083596229553
        y: 0.9727250337600708
        z: -0.09011615812778473
        w: -0.11536997556686401
---
transforms: 
  - 
    header: 
      seq: 0
      stamp: 
        secs: 1622643112
        nsecs: 447543859
      frame_id: "world"
    child_frame_id: "upperarm_r"
    transform: 
      translation: 
        x: 1.295744776725769
        y: 0.25491294264793396
        z: 1.4820122718811035
      rotation: 
        x: 0.06084562838077545
        y: -0.9871881008148193
        z: -0.07162898778915405
        w: -0.12894679605960846
---
transforms: 
  - 
    header: 
      seq: 0
      stamp: 
        secs: 1622643112
        nsecs: 447709798
      frame_id: "world"
    child_frame_id: "lowerarm_r"
    transform: 
      translation: 
        x: 1.3600175380706787
        y: 0.29538705945014954
        z: 1.2190983295440674
      rotation: 
        x: -0.13488838076591492
        y: -0.9876881837844849
        z: -0.07128411531448364
        w: 0.034583479166030884
---
transforms: 
  - 
    header: 
      seq: 0
      stamp: 
        secs: 1622643112
        nsecs: 447788476
      frame_id: "world"
    child_frame_id: "hand_r"
    transform: 
      translation: 
        x: 1.3464184999465942
        y: 0.3367539942264557
        z: 0.9452971816062927
      rotation: 
        x: 0.0883903056383133
        y: -0.9879596829414368
        z: -0.10684360563755035
        w: 0.06861071288585663
---
transforms: 
  - 
    header: 
      seq: 0
      stamp: 
        secs: 1622643112
        nsecs: 447877407
      frame_id: "world"
    child_frame_id: "A"
    transform: 
      translation: 
        x: 0.7447744011878967
        y: -0.30338311195373535
        z: 0.8750112056732178
      rotation: 
        x: 0.707248330116272
        y: -0.7069652080535889
        z: 3.0914804938220186e-08
        w: 3.0902430836476924e-08
---
transforms: 
  - 
    header: 
      seq: 0
      stamp: 
        secs: 1622643112
        nsecs: 447952747
      frame_id: "world"
    child_frame_id: "E"
    transform: 
      translation: 
        x: 0.7430031895637512
        y: -0.33499810099601746
        z: 0.8250046372413635
      rotation: 
        x: 6.879950888105668e-06
        y: -1.0
        z: 3.007322038964255e-13
        w: 4.371138828673793e-08
---
transforms: 
  - 
    header: 
      seq: 0
      stamp: 
        secs: 1622643112
        nsecs: 448026895
      frame_id: "world"
    child_frame_id: "L"
    transform: 
      translation: 
        x: 0.7380000352859497
        y: 0.1550000160932541
        z: 0.824999988079071
      rotation: 
        x: 0.7071069478988647
        y: -0.7071066498756409
        z: 3.090862676913275e-08
        w: 3.090861255827804e-08
---
transforms: 
  - 
    header: 
      seq: 0
      stamp: 
        secs: 1622643112
        nsecs: 448100090
      frame_id: "world"
    child_frame_id: "C"
    transform: 
      translation: 
        x: 0.7268778681755066
        y: 0.23101045191287994
        z: 0.8748819828033447
      rotation: 
        x: -2.1735666450695135e-05
        y: -1.0
        z: -9.500961215686e-13
        w: 4.371138828673793e-08
---
transforms: 
  - 
    header: 
      seq: 0
      stamp: 
        secs: 1622643112
        nsecs: 448197126
      frame_id: "world"
    child_frame_id: "B"
    transform: 
      translation: 
        x: 0.7349934577941895
        y: 0.22599750757217407
        z: 0.8250056505203247
      rotation: 
        x: 0.7071149945259094
        y: -0.7070985436439514
        z: 3.0908978487786953e-08
        w: 3.090825728691016e-08
---
transforms: 
  - 
    header: 
      seq: 0
      stamp: 
        secs: 1622643112
        nsecs: 448270320
      frame_id: "world"
    child_frame_id: "H"
    transform: 
      translation: 
        x: 0.8051490187644958
        y: 0.3763401210308075
        z: 0.8749779462814331
      rotation: 
        x: 0.7070774435997009
        y: -0.7071361541748047
        z: 3.090733713406735e-08
        w: 3.090990219334344e-08
---
transforms: 
  - 
    header: 
      seq: 0
      stamp: 
        secs: 1622643112
        nsecs: 448343992
      frame_id: "world"
    child_frame_id: "I"
    transform: 
      translation: 
        x: 0.7820116281509399
        y: 0.34497860074043274
        z: 0.8249954581260681
      rotation: 
        x: -1.705256636341801e-06
        y: -1.0
        z: -7.453913652760366e-14
        w: 4.371138828673793e-08
---
transforms: 
  - 
    header: 
      seq: 0
      stamp: 
        secs: 1622643112
        nsecs: 448417901
      frame_id: "world"
    child_frame_id: "G"
    transform: 
      translation: 
        x: 0.8110139966011047
        y: 0.39799538254737854
        z: 0.8249956369400024
      rotation: 
        x: -1.555467679281719e-05
        y: -1.0
        z: -6.799165180523814e-13
        w: 4.371138828673793e-08
---
transforms: 
  - 
    header: 
      seq: 0
      stamp: 
        secs: 1622643112
        nsecs: 448490858
      frame_id: "world"
    child_frame_id: "D"
    transform: 
      translation: 
        x: 0.6470000147819519
        y: -0.12600000202655792
        z: 0.824999988079071
      rotation: 
        x: 0.7071067690849304
        y: -0.7071067690849304
        z: 3.0908619663705394e-08
        w: 3.0908619663705394e-08
---
transforms: 
  - 
    header: 
      seq: 0
      stamp: 
        secs: 1622643112
        nsecs: 448563814
      frame_id: "world"
    child_frame_id: "F"
    transform: 
      translation: 
        x: 0.5889999866485596
        y: 0.3190000057220459
        z: 0.824999988079071
      rotation: 
        x: 0.7071068286895752
        y: -0.7071067094802856
        z: 3.0908619663705394e-08
        w: 3.0908616110991716e-08
---
transforms: 
  - 
    header: 
      seq: 0
      stamp: 
        secs: 1622643112
        nsecs: 448657989
      frame_id: "world"
    child_frame_id: "M"
    transform: 
      translation: 
        x: 0.7709854245185852
        y: -0.27398839592933655
        z: 0.8250053524971008
      rotation: 
        x: 2.707964085857384e-05
        y: -1.0
        z: 1.1836886722529916e-12
        w: 4.371138828673793e-08
---
transforms: 
  - 
    header: 
      seq: 0
      stamp: 
        secs: 1622643112
        nsecs: 448732376
      frame_id: "world"
    child_frame_id: "Redbox"
    transform: 
      translation: 
        x: 0.7429999709129333
        y: -0.597000002861023
        z: 0.8009999990463257
      rotation: 
        x: 0.0
        y: -1.0
        z: 0.0
        w: 4.371138828673793e-08
---
transforms: 
  - 
    header: 
      seq: 0
      stamp: 
        secs: 1622643112
        nsecs: 448805809
      frame_id: "world"
    child_frame_id: "MiddlePlacement"
    transform: 
      translation: 
        x: 0.9369999766349792
        y: -0.0
        z: 0.8399999737739563
      rotation: 
        x: 0.7071067690849304
        y: -0.7071067690849304
        z: 3.0908619663705394e-08
        w: 3.0908619663705394e-08
---
transforms: 
  - 
    header: 
      seq: 0
      stamp: 
        secs: 1622643112
        nsecs: 448878765
      frame_id: "world"
    child_frame_id: "MiddlePlacementN"
    transform: 
      translation: 
        x: 0.7400000095367432
        y: -0.0
        z: 0.824999988079071
      rotation: 
        x: 0.0
        y: -1.0
        z: 0.0
        w: 4.371138828673793e-08
---
transforms: 
  - 
    header: 
      seq: 0
      stamp: 
        secs: 1622643112
        nsecs: 464475300
      frame_id: "world"
    child_frame_id: "base"
    transform: 
      translation: 
        x: 0.0
        y: 0.0
        z: 0.9
      rotation: 
        x: 0.0
        y: 0.0
        z: 0.0
        w: 1.0
---
transforms: 
  - 
    header: 
      seq: 0
      stamp: 
        secs: 1622643112
        nsecs: 448951482
      frame_id: "world"
    child_frame_id: "Bluebox"
    transform: 
      translation: 
        x: 0.6679999828338623
        y: 0.6079999804496765
        z: 0.8009999990463257
      rotation: 
        x: 0.0
        y: -1.0
        z: 0.0
        w: 4.371138828673793e-08
---
transforms: 
  - 
    header: 
      seq: 0
      stamp: 
        secs: 1622643112
        nsecs: 474573900
      frame_id: "world"
    child_frame_id: "base"
    transform: 
      translation: 
        x: 0.0
        y: 0.0
        z: 0.9
      rotation: 
        x: 0.0
        y: 0.0
        z: 0.0
        w: 1.0
---
transforms: 
  - 
    header: 
      seq: 0
      stamp: 
        secs: 1622643112
        nsecs: 484680800
      frame_id: "world"
    child_frame_id: "base"
    transform: 
      translation: 
        x: 0.0
        y: 0.0
        z: 0.9
      rotation: 
        x: 0.0
        y: 0.0
        z: 0.0
        w: 1.0
---
transforms: 
  - 
    header: 
      seq: 0
      stamp: 
        secs: 1622643112
        nsecs: 494784100
      frame_id: "world"
    child_frame_id: "base"
    transform: 
      translation: 
        x: 0.0
        y: 0.0
        z: 0.9
      rotation: 
        x: 0.0
        y: 0.0
        z: 0.0
        w: 1.0
---
transforms: 
  - 
    header: 
      seq: 0
      stamp: 
        secs: 1622643112
        nsecs: 487996339
      frame_id: "torso"
    child_frame_id: "head"
    transform: 
      translation: 
        x: 0.06
        y: 0.0
        z: 0.686
      rotation: 
        x: 0.0
        y: 0.0
        z: 0.0
        w: 1.0
  - 
    header: 
      seq: 0
      stamp: 
        secs: 1622643112
        nsecs: 487996339
      frame_id: "left_gripper_base"
    child_frame_id: "l_gripper_l_finger"
    transform: 
      translation: 
        x: 0.0
        y: -0.0014999999999999996
        z: 0.02
      rotation: 
        x: 0.0
        y: 0.0
        z: 0.0
        w: 1.0
  - 
    header: 
      seq: 0
      stamp: 
        secs: 1622643112
        nsecs: 487996339
      frame_id: "left_gripper_base"
    child_frame_id: "l_gripper_r_finger"
    transform: 
      translation: 
        x: 0.0
        y: 0.0014999999999999996
        z: 0.02
      rotation: 
        x: 0.0
        y: 0.0
        z: 0.0
        w: 1.0
  - 
    header: 
      seq: 0
      stamp: 
        secs: 1622643112
        nsecs: 487996339
      frame_id: "left_lower_shoulder"
    child_frame_id: "left_upper_elbow"
    transform: 
      translation: 
        x: 0.102
        y: 0.0
        z: 0.0
      rotation: 
        x: 0.5
        y: 0.49999999999755174
        z: 0.5
        w: 0.5000000000024483
  - 
    header: 
      seq: 0
      stamp: 
        secs: 1622643112
        nsecs: 487996339
      frame_id: "left_upper_elbow"
    child_frame_id: "left_lower_elbow"
    transform: 
      translation: 
        x: 0.069
        y: 0.0
        z: 0.26242
      rotation: 
        x: -0.5
        y: -0.5
        z: -0.49999999999755174
        w: 0.5000000000024483
  - 
    header: 
      seq: 0
      stamp: 
        secs: 1622643112
        nsecs: 487996339
      frame_id: "left_arm_mount"
    child_frame_id: "left_upper_shoulder"
    transform: 
      translation: 
        x: 0.055695
        y: 0.0
        z: 0.011038
      rotation: 
        x: 0.0
        y: 0.0
        z: 0.0
        w: 1.0
  - 
    header: 
      seq: 0
      stamp: 
        secs: 1622643112
        nsecs: 487996339
      frame_id: "left_upper_shoulder"
    child_frame_id: "left_lower_shoulder"
    transform: 
      translation: 
        x: 0.069
        y: 0.0
        z: 0.27035
      rotation: 
        x: -0.7071067811848163
        y: 0.0
        z: 0.0
        w: 0.7071067811882787
  - 
    header: 
      seq: 0
      stamp: 
        secs: 1622643112
        nsecs: 487996339
      frame_id: "left_lower_elbow"
    child_frame_id: "left_upper_forearm"
    transform: 
      translation: 
        x: 0.10359
        y: 0.0
        z: 0.0
      rotation: 
        x: 0.5
        y: 0.49999999999755174
        z: 0.5
        w: 0.5000000000024483
  - 
    header: 
      seq: 0
      stamp: 
        secs: 1622643112
        nsecs: 487996339
      frame_id: "left_upper_forearm"
    child_frame_id: "left_lower_forearm"
    transform: 
      translation: 
        x: 0.01
        y: 0.0
        z: 0.2707
      rotation: 
        x: -0.5
        y: -0.5
        z: -0.49999999999755174
        w: 0.5000000000024483
  - 
    header: 
      seq: 0
      stamp: 
        secs: 1622643112
        nsecs: 487996339
      frame_id: "left_lower_forearm"
    child_frame_id: "left_wrist"
    transform: 
      translation: 
        x: 0.115975
        y: 0.0
        z: 0.0
      rotation: 
        x: 0.5
        y: 0.49999999999755174
        z: 0.5
        w: 0.5000000000024483
  - 
    header: 
      seq: 0
      stamp: 
        secs: 1622643112
        nsecs: 487996339
      frame_id: "right_gripper_base"
    child_frame_id: "r_gripper_l_finger"
    transform: 
      translation: 
        x: 0.0
        y: -0.0014999999999999996
        z: 0.02
      rotation: 
        x: 0.0
        y: 0.0
        z: 0.0
        w: 1.0
  - 
    header: 
      seq: 0
      stamp: 
        secs: 1622643112
        nsecs: 487996339
      frame_id: "right_gripper_base"
    child_frame_id: "r_gripper_r_finger"
    transform: 
      translation: 
        x: 0.0
        y: 0.0014999999999999996
        z: 0.02
      rotation: 
        x: 0.0
        y: 0.0
        z: 0.0
        w: 1.0
  - 
    header: 
      seq: 0
      stamp: 
        secs: 1622643112
        nsecs: 487996339
      frame_id: "right_lower_shoulder"
    child_frame_id: "right_upper_elbow"
    transform: 
      translation: 
        x: 0.102
        y: 0.0
        z: 0.0
      rotation: 
        x: 0.5
        y: 0.49999999999755174
        z: 0.5
        w: 0.5000000000024483
  - 
    header: 
      seq: 0
      stamp: 
        secs: 1622643112
        nsecs: 487996339
      frame_id: "right_upper_elbow"
    child_frame_id: "right_lower_elbow"
    transform: 
      translation: 
        x: 0.069
        y: 0.0
        z: 0.26242
      rotation: 
        x: -0.5
        y: -0.5
        z: -0.49999999999755174
        w: 0.5000000000024483
  - 
    header: 
      seq: 0
      stamp: 
        secs: 1622643112
        nsecs: 487996339
      frame_id: "right_arm_mount"
    child_frame_id: "right_upper_shoulder"
    transform: 
      translation: 
        x: 0.055695
        y: 0.0
        z: 0.011038
      rotation: 
        x: 0.0
        y: 0.0
        z: 0.0
        w: 1.0
  - 
    header: 
      seq: 0
      stamp: 
        secs: 1622643112
        nsecs: 487996339
      frame_id: "right_upper_shoulder"
    child_frame_id: "right_lower_shoulder"
    transform: 
      translation: 
        x: 0.069
        y: 0.0
        z: 0.27035
      rotation: 
        x: -0.7071067811848163
        y: 0.0
        z: 0.0
        w: 0.7071067811882787
  - 
    header: 
      seq: 0
      stamp: 
        secs: 1622643112
        nsecs: 487996339
      frame_id: "right_lower_elbow"
    child_frame_id: "right_upper_forearm"
    transform: 
      translation: 
        x: 0.10359
        y: 0.0
        z: 0.0
      rotation: 
        x: 0.5
        y: 0.49999999999755174
        z: 0.5
        w: 0.5000000000024483
  - 
    header: 
      seq: 0
      stamp: 
        secs: 1622643112
        nsecs: 487996339
      frame_id: "right_upper_forearm"
    child_frame_id: "right_lower_forearm"
    transform: 
      translation: 
        x: 0.01
        y: 0.0
        z: 0.2707
      rotation: 
        x: -0.5
        y: -0.5
        z: -0.49999999999755174
        w: 0.5000000000024483
  - 
    header: 
      seq: 0
      stamp: 
        secs: 1622643112
        nsecs: 487996339
      frame_id: "right_lower_forearm"
    child_frame_id: "right_wrist"
    transform: 
      translation: 
        x: 0.115975
        y: 0.0
        z: 0.0
      rotation: 
        x: 0.5
        y: 0.49999999999755174
        z: 0.5
        w: 0.5000000000024483
---
transforms: 
  - 
    header: 
      seq: 0
      stamp: 
        secs: 1622643112
        nsecs: 504923500
      frame_id: "world"
    child_frame_id: "base"
    transform: 
      translation: 
        x: 0.0
        y: 0.0
        z: 0.9
      rotation: 
        x: 0.0
        y: 0.0
        z: 0.0
        w: 1.0
---
transforms: 
  - 
    header: 
      seq: 0
      stamp: 
        secs: 1622643112
        nsecs: 515109300
      frame_id: "world"
    child_frame_id: "base"
    transform: 
      translation: 
        x: 0.0
        y: 0.0
        z: 0.9
      rotation: 
        x: 0.0
        y: 0.0
        z: 0.0
        w: 1.0
---
transforms: 
  - 
    header: 
      seq: 0
      stamp: 
        secs: 1622643112
        nsecs: 525223400
      frame_id: "world"
    child_frame_id: "base"
    transform: 
      translation: 
        x: 0.0
        y: 0.0
        z: 0.9
      rotation: 
        x: 0.0
        y: 0.0
        z: 0.0
        w: 1.0
---
transforms: 
  - 
    header: 
      seq: 0
      stamp: 
        secs: 1622643112
        nsecs: 535339500
      frame_id: "world"
    child_frame_id: "base"
    transform: 
      translation: 
        x: 0.0
        y: 0.0
        z: 0.9
      rotation: 
        x: 0.0
        y: 0.0
        z: 0.0
        w: 1.0
---
transforms: 
  - 
    header: 
      seq: 0
      stamp: 
        secs: 1622643112
        nsecs: 527257919
      frame_id: "world"
    child_frame_id: "pelvis"
    transform: 
      translation: 
        x: 1.3223202228546143
        y: 0.07352487742900848
        z: 1.011255145072937
      rotation: 
        x: -0.20608341693878174
        y: 0.0013061761856079102
        z: -0.9784904718399048
        w: 0.009185791015625
---
transforms: 
  - 
    header: 
      seq: 0
      stamp: 
        secs: 1622643112
        nsecs: 527453422
      frame_id: "world"
    child_frame_id: "spine"
    transform: 
      translation: 
        x: 1.3488457202911377
        y: 0.07123404741287231
        z: 1.2401201725006104
      rotation: 
        x: -0.04199342429637909
        y: 0.010161727666854858
        z: -0.9990441203117371
        w: -0.006649047136306763
---
transforms: 
  - 
    header: 
      seq: 0
      stamp: 
        secs: 1622643112
        nsecs: 527602434
      frame_id: "world"
    child_frame_id: "neck"
    transform: 
      translation: 
        x: 1.2823318243026733
        y: 0.06512545049190521
        z: 1.5970209836959839
      rotation: 
        x: 0.18061986565589905
        y: 0.023947149515151978
        z: -0.9828411936759949
        w: -0.028750866651535034
---
transforms: 
  - 
    header: 
      seq: 0
      stamp: 
        secs: 1622643112
        nsecs: 527707338
      frame_id: "world"
    child_frame_id: "h_head"
    transform: 
      translation: 
        x: 1.2456037998199463
        y: 0.06364919245243073
        z: 1.7011245489120483
      rotation: 
        x: -0.04680100083351135
        y: 0.006515949964523315
        z: -0.9974390268325806
        w: -0.053696006536483765
---
transforms: 
  - 
    header: 
      seq: 0
      stamp: 
        secs: 1622643112
        nsecs: 527788877
      frame_id: "world"
    child_frame_id: "upperarm_l"
    transform: 
      translation: 
        x: 1.2892447710037231
        y: -0.13190415501594543
        z: 1.4825897216796875
      rotation: 
        x: 0.15513551235198975
        y: 0.9830669164657593
        z: -0.07404166460037231
        w: 0.06348839402198792
---
transforms: 
  - 
    header: 
      seq: 0
      stamp: 
        secs: 1622643112
        nsecs: 527877569
      frame_id: "world"
    child_frame_id: "lowerarm_l"
    transform: 
      translation: 
        x: 1.3150643110275269
        y: -0.17448633909225464
        z: 1.2141777276992798
      rotation: 
        x: -0.017671242356300354
        y: 0.997064471244812
        z: -0.052137136459350586
        w: -0.053218960762023926
---
transforms: 
  - 
    header: 
      seq: 0
      stamp: 
        secs: 1622643112
        nsecs: 527968406
      frame_id: "world"
    child_frame_id: "hand_l"
    transform: 
      translation: 
        x: 1.2862770557403564
        y: -0.20357215404510498
        z: 0.9399712681770325
      rotation: 
        x: 0.17410874366760254
        y: 0.973331093788147
        z: -0.0941573828458786
        w: -0.11596235632896423
---
transforms: 
  - 
    header: 
      seq: 0
      stamp: 
        secs: 1622643112
        nsecs: 528065443
      frame_id: "world"
    child_frame_id: "upperarm_r"
    transform: 
      translation: 
        x: 1.294095516204834
        y: 0.26473695039749146
        z: 1.4818845987319946
      rotation: 
        x: 0.06316639482975006
        y: -0.987133264541626
        z: -0.07036067545413971
        w: -0.12894892692565918
---
transforms: 
  - 
    header: 
      seq: 0
      stamp: 
        secs: 1622643112
        nsecs: 528141736
      frame_id: "world"
    child_frame_id: "lowerarm_r"
    transform: 
      translation: 
        x: 1.358328938484192
        y: 0.3046718239784241
        z: 1.2188397645950317
      rotation: 
        x: -0.13299737870693207
        y: -0.9880164861679077
        z: -0.0688953697681427
        w: 0.037266477942466736
---
transforms: 
  - 
    header: 
      seq: 0
      stamp: 
        secs: 1622643112
        nsecs: 528214693
      frame_id: "world"
    child_frame_id: "hand_r"
    transform: 
      translation: 
        x: 1.3429943323135376
        y: 0.34490668773651123
        z: 0.9449616074562073
      rotation: 
        x: 0.08990366756916046
        y: -0.9881047010421753
        z: -0.1040763258934021
        w: 0.06881171464920044
---
transforms: 
  - 
    header: 
      seq: 0
      stamp: 
        secs: 1622643112
        nsecs: 528295993
      frame_id: "world"
    child_frame_id: "A"
    transform: 
      translation: 
        x: 0.7447744011878967
        y: -0.30338311195373535
        z: 0.8750112056732178
      rotation: 
        x: 0.707248330116272
        y: -0.7069652080535889
        z: 3.0914804938220186e-08
        w: 3.0902430836476924e-08
---
transforms: 
  - 
    header: 
      seq: 0
      stamp: 
        secs: 1622643112
        nsecs: 528374433
      frame_id: "world"
    child_frame_id: "E"
    transform: 
      translation: 
        x: 0.7430031895637512
        y: -0.33499810099601746
        z: 0.8250046372413635
      rotation: 
        x: 6.879950888105668e-06
        y: -1.0
        z: 3.007322038964255e-13
        w: 4.371138828673793e-08
---
transforms: 
  - 
    header: 
      seq: 0
      stamp: 
        secs: 1622643112
        nsecs: 528471469
      frame_id: "world"
    child_frame_id: "L"
    transform: 
      translation: 
        x: 0.7380000352859497
        y: 0.1550000160932541
        z: 0.824999988079071
      rotation: 
        x: 0.7071069478988647
        y: -0.7071066498756409
        z: 3.090862676913275e-08
        w: 3.090861255827804e-08
---
transforms: 
  - 
    header: 
      seq: 0
      stamp: 
        secs: 1622643112
        nsecs: 528587341
      frame_id: "world"
    child_frame_id: "C"
    transform: 
      translation: 
        x: 0.7268778681755066
        y: 0.23101045191287994
        z: 0.8748819828033447
      rotation: 
        x: -2.1735666450695135e-05
        y: -1.0
        z: -9.500961215686e-13
        w: 4.371138828673793e-08
---
transforms: 
  - 
    header: 
      seq: 0
      stamp: 
        secs: 1622643112
        nsecs: 528682470
      frame_id: "world"
    child_frame_id: "B"
    transform: 
      translation: 
        x: 0.7349934577941895
        y: 0.22599750757217407
        z: 0.8250056505203247
      rotation: 
        x: 0.7071149945259094
        y: -0.7070985436439514
        z: 3.0908978487786953e-08
        w: 3.090825728691016e-08
---
transforms: 
  - 
    header: 
      seq: 0
      stamp: 
        secs: 1622643112
        nsecs: 528758287
      frame_id: "world"
    child_frame_id: "H"
    transform: 
      translation: 
        x: 0.8051490187644958
        y: 0.3763401210308075
        z: 0.8749779462814331
      rotation: 
        x: 0.7070774435997009
        y: -0.7071361541748047
        z: 3.090733713406735e-08
        w: 3.090990219334344e-08
---
transforms: 
  - 
    header: 
      seq: 0
      stamp: 
        secs: 1622643112
        nsecs: 528832197
      frame_id: "world"
    child_frame_id: "I"
    transform: 
      translation: 
        x: 0.7820116281509399
        y: 0.34497860074043274
        z: 0.8249954581260681
      rotation: 
        x: -1.705256636341801e-06
        y: -1.0
        z: -7.453913652760366e-14
        w: 4.371138828673793e-08
---
transforms: 
  - 
    header: 
      seq: 0
      stamp: 
        secs: 1622643112
        nsecs: 528905868
      frame_id: "world"
    child_frame_id: "G"
    transform: 
      translation: 
        x: 0.8110139966011047
        y: 0.39799538254737854
        z: 0.8249956369400024
      rotation: 
        x: -1.555467679281719e-05
        y: -1.0
        z: -6.799165180523814e-13
        w: 4.371138828673793e-08
---
transforms: 
  - 
    header: 
      seq: 0
      stamp: 
        secs: 1622643112
        nsecs: 528992652
      frame_id: "world"
    child_frame_id: "D"
    transform: 
      translation: 
        x: 0.6470000147819519
        y: -0.12600000202655792
        z: 0.824999988079071
      rotation: 
        x: 0.7071067690849304
        y: -0.7071067690849304
        z: 3.0908619663705394e-08
        w: 3.0908619663705394e-08
---
transforms: 
  - 
    header: 
      seq: 0
      stamp: 
        secs: 1622643112
        nsecs: 529066085
      frame_id: "world"
    child_frame_id: "F"
    transform: 
      translation: 
        x: 0.5889999866485596
        y: 0.3190000057220459
        z: 0.824999988079071
      rotation: 
        x: 0.7071068286895752
        y: -0.7071067094802856
        z: 3.0908619663705394e-08
        w: 3.0908616110991716e-08
---
transforms: 
  - 
    header: 
      seq: 0
      stamp: 
        secs: 1622643112
        nsecs: 529182195
      frame_id: "world"
    child_frame_id: "M"
    transform: 
      translation: 
        x: 0.7709854245185852
        y: -0.27398839592933655
        z: 0.8250053524971008
      rotation: 
        x: 2.707964085857384e-05
        y: -1.0
        z: 1.1836886722529916e-12
        w: 4.371138828673793e-08
---
transforms: 
  - 
    header: 
      seq: 0
      stamp: 
        secs: 1622643112
        nsecs: 529255390
      frame_id: "world"
    child_frame_id: "Redbox"
    transform: 
      translation: 
        x: 0.7429999709129333
        y: -0.597000002861023
        z: 0.8009999990463257
      rotation: 
        x: 0.0
        y: -1.0
        z: 0.0
        w: 4.371138828673793e-08
---
transforms: 
  - 
    header: 
      seq: 0
      stamp: 
        secs: 1622643112
        nsecs: 529328584
      frame_id: "world"
    child_frame_id: "MiddlePlacement"
    transform: 
      translation: 
        x: 0.9369999766349792
        y: -0.0
        z: 0.8399999737739563
      rotation: 
        x: 0.7071067690849304
        y: -0.7071067690849304
        z: 3.0908619663705394e-08
        w: 3.0908619663705394e-08
---
transforms: 
  - 
    header: 
      seq: 0
      stamp: 
        secs: 1622643112
        nsecs: 529402971
      frame_id: "world"
    child_frame_id: "MiddlePlacementN"
    transform: 
      translation: 
        x: 0.7400000095367432
        y: -0.0
        z: 0.824999988079071
      rotation: 
        x: 0.0
        y: -1.0
        z: 0.0
        w: 4.371138828673793e-08
---
transforms: 
  - 
    header: 
      seq: 0
      stamp: 
        secs: 1622643112
        nsecs: 529493093
      frame_id: "world"
    child_frame_id: "Bluebox"
    transform: 
      translation: 
        x: 0.6679999828338623
        y: 0.6079999804496765
        z: 0.8009999990463257
      rotation: 
        x: 0.0
        y: -1.0
        z: 0.0
        w: 4.371138828673793e-08
---
transforms: 
  - 
    header: 
      seq: 0
      stamp: 
        secs: 1622643112
        nsecs: 545461500
      frame_id: "world"
    child_frame_id: "base"
    transform: 
      translation: 
        x: 0.0
        y: 0.0
        z: 0.9
      rotation: 
        x: 0.0
        y: 0.0
        z: 0.0
        w: 1.0
---
transforms: 
  - 
    header: 
      seq: 0
      stamp: 
        secs: 1622643112
        nsecs: 555680600
      frame_id: "world"
    child_frame_id: "base"
    transform: 
      translation: 
        x: 0.0
        y: 0.0
        z: 0.9
      rotation: 
        x: 0.0
        y: 0.0
        z: 0.0
        w: 1.0
---
transforms: 
  - 
    header: 
      seq: 0
      stamp: 
        secs: 1622643112
        nsecs: 565858400
      frame_id: "world"
    child_frame_id: "base"
    transform: 
      translation: 
        x: 0.0
        y: 0.0
        z: 0.9
      rotation: 
        x: 0.0
        y: 0.0
        z: 0.0
        w: 1.0
---
transforms: 
  - 
    header: 
      seq: 0
      stamp: 
        secs: 1622643112
        nsecs: 575969600
      frame_id: "world"
    child_frame_id: "base"
    transform: 
      translation: 
        x: 0.0
        y: 0.0
        z: 0.9
      rotation: 
        x: 0.0
        y: 0.0
        z: 0.0
        w: 1.0
---
transforms: 
  - 
    header: 
      seq: 0
      stamp: 
        secs: 1622643112
        nsecs: 586098600
      frame_id: "world"
    child_frame_id: "base"
    transform: 
      translation: 
        x: 0.0
        y: 0.0
        z: 0.9
      rotation: 
        x: 0.0
        y: 0.0
        z: 0.0
        w: 1.0
---
transforms: 
  - 
    header: 
      seq: 0
      stamp: 
        secs: 1622643112
        nsecs: 576979160
      frame_id: "world"
    child_frame_id: "pelvis"
    transform: 
      translation: 
        x: 1.3222237825393677
        y: 0.0794028714299202
        z: 1.0113276243209839
      rotation: 
        x: -0.20867055654525757
        y: 0.0013080686330795288
        z: -0.9778998494148254
        w: 0.012914910912513733
---
transforms: 
  - 
    header: 
      seq: 0
      stamp: 
        secs: 1622643112
        nsecs: 577168464
      frame_id: "world"
    child_frame_id: "spine"
    transform: 
      translation: 
        x: 1.349611520767212
        y: 0.07738888263702393
        z: 1.2400211095809937
      rotation: 
        x: -0.0433884859085083
        y: 0.009371891617774963
        z: -0.9990099668502808
        w: -0.003002062439918518
---
transforms: 
  - 
    header: 
      seq: 0
      stamp: 
        secs: 1622643112
        nsecs: 577258586
      frame_id: "world"
    child_frame_id: "neck"
    transform: 
      translation: 
        x: 1.2841161489486694
        y: 0.07124031335115433
        z: 1.5971094369888306
      rotation: 
        x: 0.1793363094329834
        y: 0.025063365697860718
        z: -0.9830964803695679
        w: -0.02705398201942444
---
transforms: 
  - 
    header: 
      seq: 0
      stamp: 
        secs: 1622643112
        nsecs: 577333927
      frame_id: "world"
    child_frame_id: "h_head"
    transform: 
      translation: 
        x: 1.247640609741211
        y: 0.0696665421128273
        z: 1.7011631727218628
      rotation: 
        x: -0.04631277918815613
        y: 0.006617099046707153
        z: -0.9974237680435181
        w: -0.054384082555770874
---
transforms: 
  - 
    header: 
      seq: 0
      stamp: 
        secs: 1622643112
        nsecs: 577419519
      frame_id: "world"
    child_frame_id: "upperarm_l"
    transform: 
      translation: 
        x: 1.2921403646469116
        y: -0.12589111924171448
        z: 1.4829593896865845
      rotation: 
        x: 0.1526840776205063
        y: 0.9835468530654907
        z: -0.07372459769248962
        w: 0.0623575896024704
---
transforms: 
  - 
    header: 
      seq: 0
      stamp: 
        secs: 1622643112
        nsecs: 577492952
      frame_id: "world"
    child_frame_id: "lowerarm_l"
    transform: 
      translation: 
        x: 1.317489504814148
        y: -0.16816043853759766
        z: 1.2144627571105957
      rotation: 
        x: -0.019749999046325684
        y: 0.9970062375068665
        z: -0.05198270082473755
        w: -0.053727149963378906
---
transforms: 
  - 
    header: 
      seq: 0
      stamp: 
        secs: 1622643112
        nsecs: 577565193
      frame_id: "world"
    child_frame_id: "hand_l"
    transform: 
      translation: 
        x: 1.2884677648544312
        y: -0.1972414255142212
        z: 0.9402825832366943
      rotation: 
        x: 0.17109434306621552
        y: 0.9747021198272705
        z: -0.0884481817483902
        w: -0.11339940130710602
---
transforms: 
  - 
    header: 
      seq: 0
      stamp: 
        secs: 1622643112
        nsecs: 577638626
      frame_id: "world"
    child_frame_id: "upperarm_r"
    transform: 
      translation: 
        x: 1.294053077697754
        y: 0.27075058221817017
        z: 1.4815024137496948
      rotation: 
        x: 0.06641754508018494
        y: -0.9871886968612671
        z: -0.06922833621501923
        w: -0.1274954229593277
---
transforms: 
  - 
    header: 
      seq: 0
      stamp: 
        secs: 1622643112
        nsecs: 577732563
      frame_id: "world"
    child_frame_id: "lowerarm_r"
    transform: 
      translation: 
        x: 1.3573791980743408
        y: 0.3101944625377655
        z: 1.21817147731781
      rotation: 
        x: -0.1322033852338791
        y: -0.9881905913352966
        z: -0.06696003675460815
        w: 0.038964465260505676
---
transforms: 
  - 
    header: 
      seq: 0
      stamp: 
        secs: 1622643112
        nsecs: 577804565
      frame_id: "world"
    child_frame_id: "hand_r"
    transform: 
      translation: 
        x: 1.3409305810928345
        y: 0.34950852394104004
        z: 0.9442268013954163
      rotation: 
        x: 0.08816999197006226
        y: -0.9892152547836304
        z: -0.09426034986972809
        w: 0.06924639642238617
---
transforms: 
  - 
    header: 
      seq: 0
      stamp: 
        secs: 1622643112
        nsecs: 577876567
      frame_id: "world"
    child_frame_id: "A"
    transform: 
      translation: 
        x: 0.7447744011878967
        y: -0.30338311195373535
        z: 0.8750112056732178
      rotation: 
        x: 0.707248330116272
        y: -0.7069652080535889
        z: 3.0914804938220186e-08
        w: 3.0902430836476924e-08
---
transforms: 
  - 
    header: 
      seq: 0
      stamp: 
        secs: 1622643112
        nsecs: 578116655
      frame_id: "world"
    child_frame_id: "E"
    transform: 
      translation: 
        x: 0.7430031895637512
        y: -0.33499810099601746
        z: 0.8250046372413635
      rotation: 
        x: 6.879950888105668e-06
        y: -1.0
        z: 3.007322038964255e-13
        w: 4.371138828673793e-08
---
transforms: 
  - 
    header: 
      seq: 0
      stamp: 
        secs: 1622643112
        nsecs: 578234672
      frame_id: "world"
    child_frame_id: "L"
    transform: 
      translation: 
        x: 0.7380000352859497
        y: 0.1550000160932541
        z: 0.824999988079071
      rotation: 
        x: 0.7071069478988647
        y: -0.7071066498756409
        z: 3.090862676913275e-08
        w: 3.090861255827804e-08
---
transforms: 
  - 
    header: 
      seq: 0
      stamp: 
        secs: 1622643112
        nsecs: 578308582
      frame_id: "world"
    child_frame_id: "C"
    transform: 
      translation: 
        x: 0.7268778681755066
        y: 0.23101045191287994
        z: 0.8748819828033447
      rotation: 
        x: -2.1735666450695135e-05
        y: -1.0
        z: -9.500961215686e-13
        w: 4.371138828673793e-08
---
transforms: 
  - 
    header: 
      seq: 0
      stamp: 
        secs: 1622643112
        nsecs: 578381299
      frame_id: "world"
    child_frame_id: "B"
    transform: 
      translation: 
        x: 0.7349934577941895
        y: 0.22599750757217407
        z: 0.8250056505203247
      rotation: 
        x: 0.7071149945259094
        y: -0.7070985436439514
        z: 3.0908978487786953e-08
        w: 3.090825728691016e-08
---
transforms: 
  - 
    header: 
      seq: 0
      stamp: 
        secs: 1622643112
        nsecs: 578454256
      frame_id: "world"
    child_frame_id: "H"
    transform: 
      translation: 
        x: 0.8051490187644958
        y: 0.3763401210308075
        z: 0.8749779462814331
      rotation: 
        x: 0.7070774435997009
        y: -0.7071361541748047
        z: 3.090733713406735e-08
        w: 3.090990219334344e-08
---
transforms: 
  - 
    header: 
      seq: 0
      stamp: 
        secs: 1622643112
        nsecs: 578527212
      frame_id: "world"
    child_frame_id: "I"
    transform: 
      translation: 
        x: 0.7820116281509399
        y: 0.34497860074043274
        z: 0.8249954581260681
      rotation: 
        x: -1.705256636341801e-06
        y: -1.0
        z: -7.453913652760366e-14
        w: 4.371138828673793e-08
---
transforms: 
  - 
    header: 
      seq: 0
      stamp: 
        secs: 1622643112
        nsecs: 578599452
      frame_id: "world"
    child_frame_id: "G"
    transform: 
      translation: 
        x: 0.8110139966011047
        y: 0.39799538254737854
        z: 0.8249956369400024
      rotation: 
        x: -1.555467679281719e-05
        y: -1.0
        z: -6.799165180523814e-13
        w: 4.371138828673793e-08
---
transforms: 
  - 
    header: 
      seq: 0
      stamp: 
        secs: 1622643112
        nsecs: 578672647
      frame_id: "world"
    child_frame_id: "D"
    transform: 
      translation: 
        x: 0.6470000147819519
        y: -0.12600000202655792
        z: 0.824999988079071
      rotation: 
